{
  "streets": [
    {
      "name": "Nizamuddin Bridge",
      "lat": 28.5882,
      "lng": 77.2586,
      "severity": "high"
    },
    {
      "name": "Lajpat Nagar",
      "lat": 28.5675,
      "lng": 77.2433,
      "severity": "medium"
    },
    {
      "name": "Chandni Chowk",
      "lat": 28.6562,
      "lng": 77.2300,
      "severity": "high"
    },
    {
      "name":"Vyttila Junction, Kochi",
      "lat":9.9649,
      "lng":76.2755,
      "severity":"high"
    },
    {
      "name":"Thampanoor, Thiruvananthapuram",
      "lat":8.4829,
      "lng":76.9480,
      "severity":"medium"},
    {
      "name":"Kothamangalam",
      "lat":10.0899,
      "lng":76.6191,
      "severity":"high"
    }

  ]
}
